[
  {
    "id": "cours_mirabeau",
    "name": "Cours Mirabeau",
    "activity": "balade",
    "area": "Centre historique",
    "description": "Promenade emblematique au coeur d Aix avec fontaines, terrasses et hotels particuliers.",
    "latitude": 43.5259,
    "longitude": 5.4474,
    "budgetEuros": 0,
    "durationMinutes": 45,
    "outdoor": true,
    "seniorFriendly": true,
    "childFriendly": true,
    "keywords": ["fontaines", "centre", "promenade"]
  },
  {
    "id": "rotonde",
    "name": "Fontaine de la Rotonde",
    "activity": "balade",
    "area": "Centre historique",
    "description": "Grand repere d entree du centre-ville, ideal pour demarrer une balade a pied.",
    "latitude": 43.5246,
    "longitude": 5.4454,
    "budgetEuros": 0,
    "durationMinutes": 20,
    "outdoor": true,
    "seniorFriendly": true,
    "childFriendly": true,
    "keywords": ["fontaine", "centre", "monument"]
  },
  {
    "id": "vieil_aix",
    "name": "Vieil Aix",
    "activity": "culture",
    "area": "Centre historique",
    "description": "Ruelles, places animees et patrimoine du coeur historique d Aix-en-Provence.",
    "latitude": 43.5290,
    "longitude": 5.4512,
    "budgetEuros": 0,
    "durationMinutes": 60,
    "outdoor": true,
    "seniorFriendly": true,
    "childFriendly": true,
    "keywords": ["ruelles", "patrimoine", "centre ancien"]
  },
  {
    "id": "musee_granet",
    "name": "Musee Granet",
    "activity": "culture",
    "area": "Quartier Mazarin",
    "description": "Musee d art majeur d Aix avec collections permanentes et expositions temporaires.",
    "latitude": 43.5234,
    "longitude": 5.4514,
    "budgetEuros": 12,
    "durationMinutes": 90,
    "outdoor": false,
    "seniorFriendly": true,
    "childFriendly": true,
    "keywords": ["musee", "art", "peinture"]
  },
  {
    "id": "atelier_cezanne",
    "name": "Atelier de Cezanne",
    "activity": "culture",
    "area": "Les Lauves",
    "description": "Atelier conserve du peintre Paul Cezanne, visite courte et inspiree.",
    "latitude": 43.5369,
    "longitude": 5.4424,
    "budgetEuros": 7,
    "durationMinutes": 60,
    "outdoor": false,
    "seniorFriendly": true,
    "childFriendly": false,
    "keywords": ["cezanne", "atelier", "peinture"]
  },
  {
    "id": "fondation_vasarely",
    "name": "Fondation Vasarely",
    "activity": "culture",
    "area": "Jas de Bouffan",
    "description": "Architecture et oeuvre optique dans un espace museal moderne et accessible.",
    "latitude": 43.5376,
    "longitude": 5.4097,
    "budgetEuros": 11,
    "durationMinutes": 75,
    "outdoor": false,
    "seniorFriendly": true,
    "childFriendly": true,
    "keywords": ["vasarely", "art optique", "musee"]
  },
  {
    "id": "pavillon_vendome",
    "name": "Pavillon de Vendome",
    "activity": "culture",
    "area": "Quartier Sextius",
    "description": "Hotel particulier du XVIIe siecle avec jardin paisible proche du centre.",
    "latitude": 43.5281,
    "longitude": 5.4383,
    "budgetEuros": 6,
    "durationMinutes": 60,
    "outdoor": false,
    "seniorFriendly": true,
    "childFriendly": true,
    "keywords": ["jardin", "hotel particulier", "patrimoine"]
  },
  {
    "id": "cathedrale_saint_sauveur",
    "name": "Cathedrale Saint-Sauveur",
    "activity": "culture",
    "area": "Centre historique",
    "description": "Monument roman et gothique emblématique d Aix, avec cloître remarquable.",
    "latitude": 43.5315,
    "longitude": 5.4451,
    "budgetEuros": 0,
    "durationMinutes": 40,
    "outdoor": false,
    "seniorFriendly": true,
    "childFriendly": true,
    "keywords": ["cathedrale", "eglise", "cloitre"]
  },
  {
    "id": "parc_jourdan",
    "name": "Parc Jourdan",
    "activity": "nature",
    "area": "Facultes",
    "description": "Grand parc ombrage avec pelouses, allees larges et ambiance detendue.",
    "latitude": 43.5181,
    "longitude": 5.4477,
    "budgetEuros": 0,
    "durationMinutes": 60,
    "outdoor": true,
    "seniorFriendly": true,
    "childFriendly": true,
    "keywords": ["parc", "detente", "pelouse"]
  },
  {
    "id": "terrain_des_peintres",
    "name": "Terrain des Peintres",
    "activity": "nature",
    "area": "Les Lauves",
    "description": "Point de vue celebre sur la Sainte-Victoire, tres inspire par Cezanne.",
    "latitude": 43.5418,
    "longitude": 5.4404,
    "budgetEuros": 0,
    "durationMinutes": 45,
    "outdoor": true,
    "seniorFriendly": true,
    "childFriendly": true,
    "keywords": ["panorama", "sainte-victoire", "cezanne"]
  },
  {
    "id": "route_cezanne",
    "name": "Route de Cezanne",
    "activity": "balade",
    "area": "Le Tholonet",
    "description": "Route panoramique aux portes d Aix pour une escapade courte et photogenique.",
    "latitude": 43.5278,
    "longitude": 5.5305,
    "budgetEuros": 0,
    "durationMinutes": 50,
    "outdoor": true,
    "seniorFriendly": true,
    "childFriendly": true,
    "keywords": ["thalonet", "panorama", "balade"]
  },
  {
    "id": "carrieres_bibemus",
    "name": "Carrieres de Bibemus",
    "activity": "nature",
    "area": "Bibemus",
    "description": "Site naturel ocre, plus engage physiquement mais remarquable pour une sortie nature.",
    "latitude": 43.5465,
    "longitude": 5.5057,
    "budgetEuros": 9,
    "durationMinutes": 120,
    "outdoor": true,
    "seniorFriendly": false,
    "childFriendly": false,
    "keywords": ["carriere", "ocre", "randonnee"]
  },
  {
    "id": "lac_bimont",
    "name": "Lac de Bimont",
    "activity": "nature",
    "area": "Sainte-Victoire",
    "description": "Panorama nature pres du barrage, ideal pour un bol d air aux portes d Aix.",
    "latitude": 43.5579,
    "longitude": 5.5968,
    "budgetEuros": 0,
    "durationMinutes": 90,
    "outdoor": true,
    "seniorFriendly": false,
    "childFriendly": true,
    "keywords": ["lac", "barrage", "nature"]
  },
  {
    "id": "place_cardeurs",
    "name": "Place des Cardeurs",
    "activity": "gastronomie",
    "area": "Centre historique",
    "description": "Place animee pour une pause repas ou aperitif au coeur du centre.",
    "latitude": 43.5296,
    "longitude": 5.4429,
    "budgetEuros": 18,
    "durationMinutes": 75,
    "outdoor": true,
    "seniorFriendly": true,
    "childFriendly": true,
    "keywords": ["restaurant", "terrasse", "place"]
  },
  {
    "id": "les_allees",
    "name": "Les Allees Provencales",
    "activity": "gastronomie",
    "area": "Rotonde",
    "description": "Zone moderne avec cafes, restaurants et boutiques a deux pas de la Rotonde.",
    "latitude": 43.5233,
    "longitude": 5.4416,
    "budgetEuros": 15,
    "durationMinutes": 60,
    "outdoor": false,
    "seniorFriendly": true,
    "childFriendly": true,
    "keywords": ["shopping", "cafes", "restauration"]
  },
  {
    "id": "calisson_roy_rene",
    "name": "Le Roy Rene - boutique des calissons",
    "activity": "gastronomie",
    "area": "Centre-ville",
    "description": "Degustation et boutique autour de la specialite sucree emblématique d Aix.",
    "latitude": 43.5267,
    "longitude": 5.4463,
    "budgetEuros": 8,
    "durationMinutes": 35,
    "outdoor": false,
    "seniorFriendly": true,
    "childFriendly": true,
    "keywords": ["calisson", "gourmand", "specialite"]
  },
  {
    "id": "marche_richleme",
    "name": "Marche de la place Richelme",
    "activity": "gastronomie",
    "area": "Centre historique",
    "description": "Marche provencal convivial avec produits locaux et ambiance vivante.",
    "latitude": 43.5285,
    "longitude": 5.4466,
    "budgetEuros": 10,
    "durationMinutes": 45,
    "outdoor": true,
    "seniorFriendly": true,
    "childFriendly": true,
    "keywords": ["marche", "provence", "produits locaux"]
  },
  {
    "id": "parc_rambot",
    "name": "Parc Rambot",
    "activity": "famille",
    "area": "Est d Aix",
    "description": "Parc de quartier facile d acces pour une pause avec enfants ou grands-parents.",
    "latitude": 43.5288,
    "longitude": 5.4592,
    "budgetEuros": 0,
    "durationMinutes": 45,
    "outdoor": true,
    "seniorFriendly": true,
    "childFriendly": true,
    "keywords": ["famille", "aire de jeux", "repos"]
  },
  {
    "id": "bibliotheque_mejanes",
    "name": "Bibliotheque Mejanes",
    "activity": "famille",
    "area": "Quartier Sextius",
    "description": "Espace interieur culturel et calme, adapte a une sortie douce en famille.",
    "latitude": 43.5241,
    "longitude": 5.4362,
    "budgetEuros": 0,
    "durationMinutes": 50,
    "outdoor": false,
    "seniorFriendly": true,
    "childFriendly": true,
    "keywords": ["lecture", "calme", "culture"]
  },
  {
    "id": "thermes_sextius",
    "name": "Thermes Sextius - spa urbain",
    "activity": "detente",
    "area": "Quartier Sextius",
    "description": "Parenthese bien-etre au coeur d Aix pour un moment de detente interieur.",
    "latitude": 43.5274,
    "longitude": 5.4389,
    "budgetEuros": 28,
    "durationMinutes": 90,
    "outdoor": false,
    "seniorFriendly": true,
    "childFriendly": false,
    "keywords": ["spa", "detente", "bien-etre"]
  }
]